City_ID,City,Lat,Lng,Max Temp,Humidity,Cloudiness,Wind Speed,Country,Date
0,iskateley,67.6803,53.1512,3.81,82,11,7.19,RU,1695349488
1,olonkinbyen,70.9221,-8.7187,2.1,92,96,6.52,SJ,1695349488
2,haiku-pauwela,20.9219,-156.3051,25.28,78,75,8.75,US,1695349489
3,ribeira grande,38.5167,-28.7,21.54,77,42,5.81,PT,1695349489
4,basse-terre,16.1667,-61.6667,23.58,94,0,0.0,GP,1695349490
5,strathalbyn,-35.2667,138.9,19.39,60,3,2.79,AU,1695349490
6,carnarvon,-24.8667,113.6333,21.18,67,0,5.18,AU,1695349490
7,sungjibaegam,41.2428,128.7989,14.31,43,0,4.04,KP,1695349491
8,edinburgh of the seven seas,-37.0676,-12.3116,11.42,67,54,11.16,SH,1695349491
9,tiksi,71.6872,128.8694,2.23,65,97,7.3,RU,1695349491
10,vila velha,-20.3297,-40.2925,22.19,88,20,1.54,BR,1695349492
11,vorgashor,67.5833,63.95,2.29,86,100,8.33,RU,1695349492
12,hit,33.6416,42.8251,29.36,15,0,3.29,IQ,1695349493
13,igarka,67.4667,86.5833,8.07,93,100,6.82,RU,1695349493
14,grytviken,-54.2811,-36.5092,-1.11,95,100,6.01,GS,1695349494
15,whitehorse,60.7161,-135.0538,8.78,85,100,4.12,CA,1695349494
16,lompoc,34.6391,-120.4579,17.74,77,0,1.54,US,1695349495
17,bethel,41.3712,-73.414,15.36,85,0,0.0,US,1695348718
18,bikenibeu village,1.3673,173.1241,31.98,66,40,6.17,KI,1695349496
19,wailea,19.8858,-155.123,26.57,73,40,2.57,US,1695349496
20,posto fiscal rolim de moura,-13.0833,-62.2667,29.68,41,51,1.43,BR,1695349497
21,port-aux-francais,-49.35,70.2167,2.05,74,69,10.37,TF,1695349497
22,ushuaia,-54.8,-68.3,0.81,69,0,1.54,AR,1695349286
23,al jubayl,27.0112,49.6583,31.64,45,24,5.74,SA,1695349498
24,bilibino,68.0546,166.4372,4.62,67,100,0.83,RU,1695349498
25,east london,-33.0153,27.9116,16.56,62,2,2.85,ZA,1695349499
26,tralee,52.2704,-9.7026,10.82,88,88,6.61,IE,1695349499
27,yellowknife,62.456,-114.3525,14.29,70,75,1.54,CA,1695349500
28,adamstown,-25.066,-130.1015,20.83,89,100,4.79,PN,1695349500
29,salaqi,40.5414,110.5108,19.43,39,25,6.33,CN,1695349500
30,hovd,48.0056,91.6419,10.93,55,8,0.48,MN,1695349501
31,constantia,44.1833,28.65,17.61,70,74,5.12,RO,1695349446
32,waitangi,-43.9535,-176.5597,15.46,86,59,2.24,NZ,1695349502
33,viedma,-40.8135,-62.9967,5.81,81,3,3.02,AR,1695349502
34,neiafu,-18.65,-173.9833,27.38,54,20,8.23,TO,1695349502
35,suva,-18.1416,178.4415,22.71,83,75,6.69,FJ,1695349503
36,la passe,45.5549,-0.8967,16.66,74,83,9.58,FR,1695349503
37,sinabang,2.4803,96.3801,26.33,83,100,3.07,ID,1695349504
38,coahuayana de hidalgo,18.7,-103.6583,26.71,82,5,0.36,MX,1695349505
39,tarinkot,32.6268,65.8733,19.23,22,0,0.54,AF,1695349337
40,ust-nera,64.5667,143.2,0.31,72,88,0.33,RU,1695349506
41,belel,7.05,14.4333,14.65,88,97,0.99,CM,1695349507
42,fale old settlement,-9.3852,-171.2468,27.46,81,100,6.22,TK,1695349507
43,badger,64.8,-147.5333,6.95,82,100,5.14,US,1695349507
44,college,64.8569,-147.8028,6.99,81,75,5.14,US,1695349508
45,bezhetsk,57.7851,36.6965,11.8,91,1,2.59,RU,1695349508
46,tan-tan,28.438,-11.1032,19.68,91,10,4.74,MA,1695349509
47,stanley,54.868,-1.6985,7.01,91,0,2.06,GB,1695349509
48,manismata,-2.4667,111.0333,30.08,56,85,2.52,ID,1695349510
49,kristiansund,63.1115,7.732,12.36,87,75,1.03,NO,1695349510
50,dynow,49.8151,22.2339,13.71,70,21,3.15,PL,1695349510
51,maues,-3.3836,-57.7186,25.89,71,48,1.47,BR,1695349511
52,anadyr,64.75,177.4833,6.28,93,75,11.0,RU,1695349512
53,blackmans bay,-43.0167,147.3167,14.85,56,72,1.18,AU,1695349512
54,ladario,-19.0047,-57.6017,29.0,38,0,0.28,BR,1695349512
55,hemsby,52.6971,1.6918,12.13,96,100,3.73,GB,1695349513
56,thinadhoo,0.5333,72.9333,27.82,76,81,3.24,MV,1695349513
57,longyearbyen,78.2186,15.6401,-2.09,86,75,2.06,SJ,1695349214
58,arraias,-12.9288,-46.9437,25.53,26,0,2.45,BR,1695349514
59,kyren,51.6828,102.1408,12.75,74,94,0.63,RU,1695349515
60,ust'-barguzin,53.45,108.9833,12.64,66,5,0.46,RU,1695349458
61,lebu,-37.6167,-73.65,12.53,89,89,7.65,CL,1695349516
62,luderitz,-26.6481,15.1594,13.91,58,0,5.8,NA,1695349516
63,utrik,11.2278,169.8474,28.43,73,29,3.76,MH,1695349516
64,margaret river,-33.95,115.0667,18.84,65,4,3.57,AU,1695349517
65,ancud,-41.8697,-73.8203,6.96,91,100,2.52,CL,1695349517
66,ilulissat,69.2167,-51.1,-2.99,68,0,3.09,GL,1695349518
67,tura,25.5198,90.2201,24.03,95,100,1.89,IN,1695349518
68,xinyuan,37.3,99.0,8.1,61,84,0.88,CN,1695349519
69,laguna,38.421,-121.4238,24.86,54,0,6.69,US,1695349519
70,springbok,-29.6643,17.8865,10.79,47,0,1.28,ZA,1695349519
71,mollendo,-17.0231,-72.0147,17.59,84,62,2.86,PE,1695349520
72,bossangoa,6.4926,17.4552,20.6,97,94,0.21,CF,1695349520
73,lautoka,-17.6167,177.4667,24.92,78,75,2.57,FJ,1695349520
74,port mathurin,-19.6833,63.4167,23.15,69,45,6.81,MU,1695349521
75,figuig (centre),32.1089,-1.2286,24.59,35,0,2.95,MA,1695349521
76,kismayo,-0.3582,42.5454,24.83,88,41,5.27,SO,1695349522
77,miyazu,35.5333,135.1833,21.11,94,100,3.06,JP,1695349522
78,okhotsk,59.3833,143.3,8.64,56,100,4.91,RU,1695349523
79,qaqortoq,60.7167,-46.0333,3.83,77,100,1.65,GL,1695349523
80,puerto baquerizo moreno,-0.9,-89.6,23.2,79,10,4.7,EC,1695349523
81,rimouski,48.4488,-68.524,10.1,83,3,2.82,CA,1695349415
82,anshun,26.25,105.9333,20.68,88,99,4.07,CN,1695349524
83,walvis bay,-22.9575,14.5053,11.72,93,79,6.17,NA,1695349525
84,puerto natales,-51.7236,-72.4875,0.04,91,32,1.62,CL,1695349414
85,mariakani,-3.8633,39.4736,23.05,97,98,1.7,KE,1695349526
86,cabedelo,-6.9811,-34.8339,23.37,85,52,5.03,BR,1695349527
87,yeniseysk,58.4497,92.1703,11.64,91,100,1.79,RU,1695349527
88,kingston,17.997,-76.7936,29.53,87,20,4.63,JM,1695349528
89,san luis de la loma,17.2706,-100.8939,27.6,81,6,2.46,MX,1695349528
90,keflavik,64.0049,-22.5624,4.24,70,0,3.09,IS,1695349528
91,wailua homesteads,22.0669,-159.378,30.24,67,40,8.23,US,1695349529
92,avarua,-21.2078,-159.775,21.03,64,100,4.63,CK,1695349529
93,klyuchi,52.2667,79.1667,13.72,69,66,2.97,RU,1695349530
94,palmer,42.1584,-72.3287,14.92,83,20,0.0,US,1695349337
95,sungai raya,0.7,108.9,28.99,68,100,4.13,ID,1695349530
96,sanchursk,56.9413,47.2499,14.54,86,13,2.31,RU,1695349531
97,hithadhoo,-0.6,73.0833,27.74,76,65,3.92,MV,1695349532
98,eldorado,-23.7869,-54.2836,26.3,48,5,1.62,BR,1695349532
99,martuk,50.7475,56.5056,11.1,41,10,1.62,KZ,1695349533
100,albany,42.6001,-73.9662,13.78,88,6,0.89,US,1695349533
101,howrah,22.5892,88.3103,30.0,84,75,5.14,IN,1695349533
102,atafu village,-8.5421,-172.5159,27.73,79,74,5.17,TK,1695349534
103,bakchar,57.0186,82.0711,9.86,65,98,4.81,RU,1695349534
104,beauceville,46.2179,-70.7787,10.28,93,0,1.54,CA,1695349535
105,port elizabeth,-33.918,25.5701,14.5,90,75,1.54,ZA,1695349535
106,west island,-12.1568,96.8225,26.99,74,40,4.63,CC,1695349536
107,lincheng,19.9078,109.6858,28.86,74,14,1.4,CN,1695349536
108,vorotynets,56.0603,45.8633,13.89,70,81,1.81,RU,1695349536
109,nemuro,43.3236,145.575,14.59,92,100,3.47,JP,1695349537
110,invercargill,-46.4,168.35,9.45,67,81,2.24,NZ,1695348947
111,portland,45.5234,-122.6762,22.32,50,11,0.89,US,1695349223
112,lhasa,29.65,91.1,13.83,56,84,2.01,CN,1695349538
113,hawaiian paradise park,19.5933,-154.9731,26.73,75,40,2.57,US,1695349539
114,fayzabad,37.1166,70.58,14.11,57,0,0.28,AF,1695349502
115,port alfred,-33.5906,26.891,15.84,82,23,4.48,ZA,1695349540
116,ranapur,22.65,74.5333,23.87,93,100,3.33,IN,1695349540
117,puerto ayora,-0.7393,-90.3518,23.64,91,21,1.79,EC,1695349413
118,polyarnyy,69.1989,33.4478,3.55,89,100,7.58,RU,1695349541
119,dakhla,23.6848,-15.958,20.55,86,66,10.06,EH,1695349542
120,san patricio,28.017,-97.5169,29.91,67,16,5.19,US,1695349542
121,georgetown,5.4112,100.3354,27.97,84,20,2.68,MY,1695349292
122,saldanha,-33.0117,17.9442,14.03,92,100,1.73,ZA,1695349543
123,kudahuvadhoo,2.6708,72.8944,27.9,74,94,2.35,MV,1695349543
124,sidi qacem,34.2215,-5.7078,16.12,78,0,1.03,MA,1695349544
125,intendente alvear,-35.2338,-63.592,16.41,67,80,4.4,AR,1695349544
126,pariaman,-0.619,100.12,27.03,82,85,1.21,ID,1695349545
127,san antonio de pale,-1.4014,5.6325,24.51,82,100,4.91,GQ,1695349545
128,sao jose da coroa grande,-8.8978,-35.1478,24.06,84,19,4.14,BR,1695349545
129,i-n-salah,27.1935,2.4607,33.96,17,1,4.16,DZ,1695349546
130,gilgit,35.9221,74.3087,21.57,53,0,2.22,PK,1695349546
131,bredasdorp,-34.5322,20.0403,12.42,90,100,1.72,ZA,1695349547
132,udachny,66.4167,112.4,4.14,74,97,8.28,RU,1695349458
133,nova vicosa,-17.8919,-39.3719,22.54,78,2,3.78,BR,1695349548
134,vadstena,58.4486,14.8897,16.65,88,97,5.29,SE,1695349548
135,dali,25.7,100.1833,19.18,86,82,1.95,CN,1695349548
136,margate,51.3813,1.3862,11.28,93,100,3.38,GB,1695349549
137,ust'-ilimsk,58.0006,102.6619,12.88,72,95,4.31,RU,1695349549
138,turabah,21.2141,41.6331,24.65,22,33,1.06,SA,1695349550
139,daru,-9.0763,143.2092,27.68,59,100,5.02,PG,1695349550
140,phan rang-thap cham,11.5667,108.9833,30.36,65,19,0.59,VN,1695349551
141,taltal,-25.4,-70.4833,19.58,58,64,2.6,CL,1695349551
142,inhambane,-23.865,35.3833,21.14,93,8,3.54,MZ,1695349552
143,sabang,5.8933,95.3214,27.36,76,93,4.15,ID,1695349552
144,antalaha,-14.9003,50.2788,21.62,88,69,2.71,MG,1695349552
145,jamestown,42.097,-79.2353,17.8,83,75,2.57,US,1695349258
146,talcahuano,-36.7167,-73.1167,13.82,88,100,10.8,CL,1695349553
147,isafjordur,66.0755,-23.124,2.93,82,100,5.0,IS,1695349554
148,karratha,-20.7377,116.8463,31.17,24,0,4.29,AU,1695349554
149,trinity beach,-16.7888,145.6968,34.45,55,51,4.63,AU,1695349555
150,al kharj,24.155,47.3346,27.32,17,14,1.19,SA,1695349555
151,detroit lakes,46.8172,-95.8453,19.03,68,75,2.57,US,1695349454
152,rio grande,-32.035,-52.0986,19.41,97,81,4.03,BR,1695349556
153,apiai,-24.5094,-48.8425,16.47,79,0,0.66,BR,1695349556
154,bassar,9.25,0.7833,21.95,97,100,1.39,TG,1695349557
155,kolwezi,-10.7148,25.4667,17.93,30,8,2.55,CD,1695349557
156,creel,27.75,-107.6333,16.0,76,0,2.38,MX,1695349558
157,summerville,33.0185,-80.1757,22.97,80,100,3.6,US,1695349394
158,hasaki,35.7333,140.8333,27.94,79,100,2.71,JP,1695349558
159,vila franca do campo,37.7167,-25.4333,19.38,99,66,4.09,PT,1695349559
160,zyryanskoye,56.8306,86.6258,12.3,73,78,5.19,RU,1695349559
161,kitui,-1.367,38.0106,17.92,78,100,3.71,KE,1695349560
162,ostersund,63.1792,14.6357,16.25,88,75,6.17,SE,1695349560
163,petropavlovsk-kamchatsky,53.0452,158.6483,15.33,36,20,4.0,RU,1695349560
164,gadzhiyevo,69.2551,33.3362,3.32,89,100,7.63,RU,1695349561
165,rauma,61.1272,21.5113,16.02,82,99,5.96,FI,1695349561
166,sylhet,24.5,91.6667,26.71,88,100,2.81,BD,1695349413
167,skovorodino,53.9833,123.9167,10.96,44,14,2.27,RU,1695349562
168,papatowai,-46.5619,169.4708,6.73,82,99,2.71,NZ,1695349563
169,uturoa,-16.7333,-151.4333,24.97,78,91,5.3,PF,1695349563
170,antsiranana,-12.2787,49.2917,22.94,79,9,5.93,MG,1695349563
171,pangoa,-12.1167,-73.0,22.07,85,70,1.42,PE,1695349564
172,santa rosa,14.3122,121.1114,29.5,89,100,0.5,PH,1695349457
173,cherdyn',60.403,56.4787,9.49,86,100,3.07,RU,1695349565
174,al hufuf,25.3646,49.5653,29.19,21,0,4.63,SA,1695349565
175,la gi,10.6667,107.7833,28.95,71,64,2.07,VN,1695349566
176,nagato,34.3833,131.2,25.04,72,95,4.73,JP,1695349566
177,huarmey,-10.0681,-78.1522,18.97,86,10,4.34,PE,1695349566
178,jaisalmer,26.9147,70.9181,28.32,71,77,5.88,IN,1695349533
179,reguengos de monsaraz,38.4253,-7.5349,13.82,79,100,3.03,PT,1695349567
180,morehead city,34.7229,-76.726,23.33,80,0,3.6,US,1695349568
181,kone,-21.0595,164.8658,24.73,72,86,0.63,NC,1695349568
182,kasongo-lunda,-6.4667,16.8167,23.05,89,100,0.8,CD,1695349568
183,iqaluit,63.7506,-68.5145,-1.15,92,100,3.09,CA,1695349569
184,tazacorte,28.629,-17.9293,22.54,84,40,4.12,ES,1695349569
185,bengkulu,-3.8004,102.2655,25.74,74,39,3.11,ID,1695349570
186,horasan,40.0458,42.1728,12.67,64,0,1.24,TR,1695349570
187,tsiombe,-25.3,45.4833,18.66,97,8,2.2,MG,1695349571
188,taroa,8.7058,171.2275,28.64,75,95,4.57,MH,1695349571
189,ataq,14.5377,46.8319,26.98,52,95,1.23,YE,1695349572
190,thompson,55.7435,-97.8558,10.09,87,20,0.0,CA,1695349572
191,aitape,-3.1374,142.3475,28.23,78,100,0.29,PG,1695349572
192,aban,56.67,96.06,13.93,67,81,3.29,RU,1695349573
193,ola,59.5833,151.2833,11.19,68,100,5.53,RU,1695349573
194,tamanrasset,22.785,5.5228,25.95,14,0,2.06,DZ,1695349574
195,vygonichi,53.0985,34.0673,11.66,64,8,2.83,RU,1695349574
196,lorengau,-2.0226,147.2712,29.56,68,96,2.23,PG,1695349574
197,hammerfest,70.6634,23.6821,3.25,87,75,10.29,NO,1695349575
198,hami,42.8,93.45,19.08,44,16,4.53,CN,1695349575
199,jean-rabel,19.8533,-73.1917,27.76,80,21,3.8,HT,1695349576
200,hongch'on,37.6918,127.8857,18.9,57,99,1.23,KR,1695349576
201,kyenjojo,0.6328,30.6214,16.39,95,100,0.42,UG,1695349577
202,colonia,50.9333,6.95,13.87,87,0,2.57,DE,1695349311
203,choma,-16.8065,26.9531,18.93,38,70,1.91,ZM,1695349578
204,saint-pierre,-21.3393,55.4781,21.98,64,100,1.54,RE,1695349578
205,illizi,26.4833,8.4667,25.89,17,6,3.21,DZ,1695349579
206,mitu,1.1983,-70.1733,23.11,91,94,0.71,CO,1695349579
207,bayganin,48.6947,55.8742,12.88,43,4,2.09,KZ,1695349339
208,villa gesell,-37.2639,-56.973,11.14,95,100,5.0,AR,1695349580
209,zaltan,32.947,11.8665,28.28,33,3,4.78,LY,1695349580
210,kosh-agach,50.0,88.6667,4.13,88,100,0.46,RU,1695349581
211,bubaque,11.2833,-15.8333,27.98,79,100,5.27,GW,1695349581
212,mount pearl,47.5166,-52.7813,10.08,94,100,11.32,CA,1695349582
213,siguiri,11.6667,-9.5,23.13,91,95,0.97,GN,1695349582
214,bunawan,8.1667,126.0833,29.93,62,97,1.97,PH,1695349583
215,lepsy,46.235,78.9456,15.22,59,99,2.83,KZ,1695349583
216,xiantao,30.3833,113.4,18.84,80,93,1.96,CN,1695349583
217,santa terezinha,-29.9002,-50.0904,19.52,96,49,2.38,BR,1695349584
218,taoudenni,22.6783,-3.9836,35.73,11,94,3.95,ML,1695349584
219,enewetak,11.3474,162.3373,28.56,69,100,0.81,MH,1695349585
220,okakarara,-20.5833,17.4333,20.5,31,88,1.51,NA,1695349585
221,kintinku,-5.8833,35.2333,21.68,71,79,1.93,TZ,1695349586
222,aykhal,66.0,111.5,1.49,90,100,8.14,RU,1695349586
223,acarau,-2.8856,-40.12,25.86,80,56,8.11,BR,1695349419
224,holualoa,19.6228,-155.9522,25.99,72,75,4.63,US,1695349587
225,happy valley-goose bay,53.3168,-60.3315,4.17,81,75,0.0,CA,1695349587
226,port lincoln,-34.7333,135.8667,15.0,63,96,5.57,AU,1695349588
227,potosi,-19.5836,-65.7531,10.22,54,0,2.01,BO,1695349588
228,wodonga,-36.1167,146.8833,18.48,100,1,1.83,AU,1695349589
229,codrington,-38.2667,141.9667,13.47,58,27,2.75,AU,1695349589
230,sao mateus do sul,-25.8742,-50.3828,19.05,85,49,0.31,BR,1695349486
231,tazovsky,67.4667,78.7,4.49,92,100,8.1,RU,1695349590
232,prainha,-1.8,-53.48,23.3,94,10,1.67,BR,1695349590
233,erenhot,43.6475,111.9767,16.25,39,1,2.76,CN,1695349591
234,weno,7.4515,151.8468,29.01,76,100,7.41,FM,1695349591
235,basco,20.4487,121.9702,29.05,79,84,6.72,PH,1695349592
236,caleta de carquin,-11.0925,-77.6267,18.3,86,30,4.63,PE,1695349592
237,leh,34.1667,77.5833,10.14,53,3,2.72,IN,1695349593
238,bel ombre,-4.6167,55.4167,26.91,83,40,7.2,SC,1695349593
239,nelson bay,-32.7167,152.15,20.05,47,50,4.92,AU,1695349593
240,fort bragg,35.139,-79.006,21.56,75,0,2.06,US,1695349371
241,egilsstadir,65.2653,-14.3948,2.95,93,100,2.57,IS,1695349594
242,shimanovsk,52.0,127.7,11.2,40,10,5.57,RU,1695349595
243,isla mujeres,21.2311,-86.731,27.03,78,0,3.84,MX,1695349595
244,chonchi,-42.6128,-73.8092,6.18,97,100,0.59,CL,1695349596
245,mount isa,-20.7333,139.5,32.87,16,6,5.66,AU,1695349596
246,aldama,22.9167,-98.0667,29.72,89,3,1.78,MX,1695349597
247,jati,24.3539,68.2671,27.51,88,16,3.98,PK,1695349597
248,harper,4.375,-7.7169,24.68,90,50,2.82,LR,1695349597
249,la punta,-33.1837,-66.3127,16.87,59,0,6.83,AR,1695349598
250,touros,-5.1989,-35.4608,24.71,82,67,6.47,BR,1695349598
251,hermanus,-34.4187,19.2345,11.56,84,100,3.36,ZA,1695349599
252,kapa'a,22.0752,-159.319,30.99,67,40,8.23,US,1695349599
253,bulayevo,54.9056,70.4439,10.34,64,24,6.61,KZ,1695349600
254,susuman,62.7833,148.1667,1.85,70,100,0.99,RU,1695349600
255,havre,49.5833,0.3333,11.87,94,100,5.14,FR,1695349601
256,baraki barak,33.9675,68.9486,14.9,24,0,0.54,AF,1695349601
257,talnakh,69.4865,88.3972,8.45,98,100,4.35,RU,1695349602
258,belmonte,-15.8631,-38.8828,22.28,84,6,3.02,BR,1695349602
259,tolanaro,-25.0319,46.9987,18.04,100,7,0.0,MG,1695349603
260,pacocha,-17.5833,-71.3333,17.14,86,68,1.18,PE,1695349603
261,puerto cabezas,14.0351,-83.3888,26.78,88,100,3.47,NI,1695349604
262,castro,-24.7911,-50.0119,19.76,67,61,0.81,BR,1695349604
263,kamaishi,39.2667,141.8833,22.68,74,98,1.55,JP,1695349604
264,punta arenas,-53.15,-70.9167,4.06,75,0,7.72,CL,1695349331
265,mount gambier,-37.8333,140.7667,14.37,49,10,1.64,AU,1695349605
266,mayo-belwa,9.05,12.05,22.12,92,57,0.96,NG,1695349606
267,ylitornio,66.3089,23.6773,12.37,98,100,5.25,FI,1695349606
268,lodja,-3.4833,23.4333,20.58,95,100,0.79,CD,1695349607
269,fada,9.5667,8.3,20.43,91,100,0.35,NG,1695349607
270,mandal,25.45,74.5667,26.73,77,86,1.87,IN,1695349607
271,somerset,40.5668,-74.5496,19.35,82,0,1.54,US,1695349569
272,lihue,21.9789,-159.3672,30.58,67,40,8.23,US,1695349608
273,tidjikja,18.5564,-11.4271,32.24,32,81,3.77,MR,1695349608
274,lata,40.1629,-8.3327,13.93,95,69,0.25,PT,1695349609
275,la ronge,55.1001,-105.2842,12.14,66,20,1.03,CA,1695349609
276,iaciara,-14.0958,-46.6317,26.94,25,2,4.14,BR,1695349610
277,vorkuta,67.5,64.0,2.58,84,100,8.53,RU,1695349610
278,alice springs,-23.7,133.8833,24.75,23,2,5.66,AU,1695349611
279,westhill,57.1526,-2.2797,8.53,84,98,1.03,GB,1695349611
280,panaba,21.2833,-88.2667,26.76,83,5,3.89,MX,1695349612
281,sterling,39.0062,-77.4286,19.17,79,20,2.57,US,1695349414
282,kavaratti,10.5669,72.642,27.43,76,100,6.19,IN,1695349612
283,novomykolayivka,47.9781,35.9102,15.62,68,5,3.77,UA,1695349613
284,hengshui,37.7322,115.7011,24.83,52,4,3.95,CN,1695349613
285,moncks corner,33.196,-80.0131,22.99,72,40,3.09,US,1695349614
286,homa bay,-0.5273,34.4571,20.48,74,97,2.04,KE,1695349614
287,alpine,32.835,-116.7664,19.04,76,0,5.14,US,1695349614
288,kodiak,57.79,-152.4072,9.73,62,40,3.6,US,1695349615
289,vilyuysk,63.7553,121.6247,6.7,72,35,5.28,RU,1695349616
290,huaihua,27.5494,109.9592,19.22,81,100,1.6,CN,1695349616
291,baruun-urt,46.6806,113.2792,14.48,40,0,1.84,MN,1695349617
292,betio village,1.358,172.9211,32.02,76,87,4.54,KI,1695349617
293,newman,37.3138,-121.0208,25.19,56,10,2.94,US,1695349618
294,wattegama,6.7989,81.4808,26.36,76,14,3.2,LK,1695349618
295,campos altos,-19.6961,-46.1714,20.79,49,9,1.97,BR,1695349618
296,saudarkrokur,65.7461,-19.6394,2.29,79,18,1.93,IS,1695349619
297,meulaboh,4.1363,96.1285,25.55,85,97,2.2,ID,1695349619
298,mbabane,-26.3167,31.1333,15.67,26,0,2.5,SZ,1695349620
299,butte,39.6499,-121.5677,25.01,30,0,2.06,US,1695349529
300,lewistown,40.5992,-77.5714,14.41,93,0,0.0,US,1695349378
301,bria,6.5423,21.9863,20.44,94,100,0.6,CF,1695349621
302,kalevala,65.2,31.1667,10.41,99,100,2.66,RU,1695349457
303,louis trichardt,-23.0439,29.9032,18.45,62,0,1.67,ZA,1695349622
304,st. john's,47.5649,-52.7093,10.54,94,100,11.32,CA,1695349622
305,ishigaki,24.3448,124.1572,30.07,84,20,5.14,JP,1695349623
306,baturaja,-4.1333,104.1667,30.44,50,97,2.01,ID,1695349623
307,kenora,49.8167,-94.4337,15.54,82,100,2.06,CA,1695349624
308,dosso,13.049,3.1937,29.24,56,100,3.33,NE,1695349624
309,island harbour,50.724,-1.2758,12.18,95,64,0.89,GB,1695349625
310,hutchinson island south,27.2995,-80.2205,27.01,80,100,1.34,US,1695349625
311,akureyri,65.6835,-18.0878,2.96,87,100,2.57,IS,1695349626
312,cascais,38.6979,-9.4215,17.64,82,100,3.13,PT,1695349626
313,rocky mountain house,52.3668,-114.9188,8.06,71,4,1.54,CA,1695349627
314,remire-montjoly,4.9167,-52.2667,28.02,83,20,2.06,GF,1695349627
315,sao pedro do sul,-29.6206,-54.1789,23.36,90,94,2.04,BR,1695349628
316,road town,18.4167,-64.6167,28.05,75,32,7.06,VG,1695349628
317,hadibu,12.65,54.0333,26.06,83,37,5.2,YE,1695349629
318,anna regina,7.2644,-58.5077,26.62,85,12,3.18,GY,1695349629
319,karasburg,-28.0167,18.75,11.97,33,0,0.89,NA,1695349629
320,kruisfontein,-34.0033,24.7314,13.27,92,72,2.18,ZA,1695349630
321,nguigmi,14.2495,13.1092,31.52,24,92,2.94,NE,1695349630
322,bardai,11.65,7.2333,22.87,73,80,2.93,NG,1695349631
323,dargecit,37.5454,41.7197,19.16,24,0,2.28,TR,1695349631
324,san pedro,14.35,121.0167,29.08,87,75,1.34,PH,1695349632
325,south sioux city,42.4739,-96.4136,20.11,70,0,3.6,US,1695349632
326,brookings,44.3114,-96.7984,19.54,72,40,1.54,US,1695349633
327,lohardaga,23.4333,84.6833,22.74,98,100,2.0,IN,1695349396
328,chinde,26.8418,88.0763,16.61,99,100,1.37,NP,1695349633
329,tangalle,6.024,80.7911,27.09,82,28,2.88,LK,1695349634
330,comodoro rivadavia,-45.8667,-67.5,1.92,75,0,3.09,AR,1695349634
331,nuuk,64.1835,-51.7216,1.34,93,3,1.54,GL,1695349546
332,tofol,5.3248,163.0078,30.88,74,75,1.54,FM,1695349635
333,guatrache,-37.6678,-63.5302,12.5,79,100,5.49,AR,1695349636
334,mogadishu,2.0371,45.3438,25.49,90,97,5.31,SO,1695349636
335,piacabucu,-10.4056,-36.4344,23.41,83,14,3.6,BR,1695349637
336,pisco,-13.7,-76.2167,18.03,88,20,5.14,PE,1695349471
337,la'ie,21.6477,-157.9253,29.98,76,100,3.13,US,1695349638
338,lucheng,31.2336,117.2806,18.45,88,100,2.1,CN,1695349638
339,salalah,17.0151,54.0924,27.05,89,75,2.57,OM,1695349639
340,vilyuchinsk,52.9306,158.4028,16.15,50,6,3.42,RU,1695349639
341,aasiaat,68.7098,-52.8699,-6.53,79,6,2.06,GL,1695349639
342,wynyard,-41.0,145.7167,13.66,51,31,3.6,AU,1695349613
343,zhigalovo,54.8097,105.1578,11.47,65,99,0.67,RU,1695349640
344,chimichagua,9.2578,-73.8123,26.53,83,72,1.1,CO,1695349641
345,monrovia,6.3005,-10.7969,24.95,88,100,2.52,LR,1695349641
346,anamosa,42.1083,-91.2852,18.49,91,47,4.02,US,1695349642
347,kolda,12.8833,-14.95,23.84,96,95,0.98,SN,1695349642
348,zinjibar,13.1287,45.3807,30.09,74,6,1.49,YE,1695349643
349,hinatuan,8.3722,126.3342,30.69,61,89,1.88,PH,1695349643
350,okha,53.5739,142.9478,9.7,51,7,6.69,RU,1695349644
351,geraldton,-28.7667,114.6,21.23,78,100,5.14,AU,1695349644
352,miles city,46.4083,-105.8406,19.54,68,0,5.66,US,1695349645
353,nova sintra,14.8667,-24.7167,24.4,84,17,4.64,CV,1695349645
354,beypazari,40.1675,31.9211,16.77,43,92,0.82,TR,1695349646
355,jorhat,26.75,94.2167,25.5,93,99,2.16,IN,1695349646
356,papao,-17.75,-149.55,24.82,83,95,5.11,PF,1695349647
357,rurrenabaque,-14.4413,-67.5278,26.91,54,2,0.9,BO,1695349647
358,onega,63.9061,38.1404,8.66,97,100,3.78,RU,1695349647
359,uzgen,40.7699,73.3007,13.16,85,100,1.98,KG,1695349648
360,mabaruma,8.2,-59.7833,25.57,85,28,1.13,GY,1695349649
361,itanagar,27.1,93.6167,24.02,95,100,0.54,IN,1695349649
362,mili,6.0815,171.735,28.19,74,100,3.07,MH,1695349649
363,manay,7.215,126.5397,29.55,72,100,4.31,PH,1695349650
364,saint-philippe,-21.3585,55.7679,21.77,83,36,4.55,RE,1695349185
365,mossel bay,-34.1831,22.146,13.96,86,100,3.39,ZA,1695349651
366,saipan,15.1355,145.701,29.39,84,75,6.17,MP,1695349651
367,copiapo,-27.3667,-70.3333,11.83,36,22,0.53,CL,1695349168
368,savannah,32.0835,-81.0998,23.98,88,0,4.63,US,1695349162
369,toktogul,41.8708,72.9402,12.66,72,41,1.31,KG,1695349652
370,alushta,44.6667,34.4167,18.37,57,9,0.68,UA,1695349653
371,luanda,-8.8368,13.2343,22.0,88,75,3.09,AO,1695349653
372,sur,22.5667,59.5289,29.57,61,100,1.51,OM,1695349654
373,kurumkan,54.3,110.3,12.42,54,5,0.89,RU,1695349654
374,kimbe,-5.5502,150.1429,24.97,94,100,2.76,PG,1695349654
375,lib,8.3122,167.3766,28.43,76,99,3.88,MH,1695349655
376,amursk,50.2261,136.8994,9.54,85,100,3.41,RU,1695349655
377,motueka,-41.1333,173.0167,15.61,84,99,3.75,NZ,1695349656
378,kasama,-10.2129,31.1808,16.75,58,70,1.59,ZM,1695349656
379,nar'yan-mar,67.6713,53.087,3.84,82,11,7.17,RU,1695349657
380,likhoslavl',57.1275,35.464,12.5,96,4,1.96,RU,1695349657
381,woolgoolga,-30.1106,153.2007,20.93,51,97,7.8,AU,1695349658
382,pacific grove,36.6177,-121.9166,17.82,82,0,5.66,US,1695349658
383,xai-xai,-25.0519,33.6442,20.84,75,0,3.58,MZ,1695349658
384,mont-dore,-22.2833,166.5833,26.67,99,12,1.75,NC,1695349659
385,north ward,-19.2454,146.8075,28.95,58,0,6.17,AU,1695349660
386,kitimat,54.0524,-128.6534,15.38,89,93,1.79,CA,1695349409
387,novodvinsk,64.4165,40.8122,7.04,91,100,2.53,RU,1695349660
388,laojunmiao,39.8333,97.7333,14.51,31,28,9.75,CN,1695349661
389,qobustan,40.0824,49.412,20.5,69,0,0.65,AZ,1695349661
390,ruma,45.0081,19.8222,19.9,70,5,2.54,RS,1695349662
391,sint michiel liber,12.15,-68.9833,29.9,79,20,5.66,CW,1695349662
392,kuala lipis,4.1842,102.0468,26.17,89,100,0.02,MY,1695349663
393,pathein,16.7833,94.7333,28.21,83,48,2.28,MM,1695349663
394,nagqu,31.5,92.0,6.14,76,56,3.67,CN,1695349663
395,north battleford,52.7834,-108.2847,12.05,47,0,3.09,CA,1695349664
396,oranjemund,-28.55,16.4333,12.48,87,0,2.86,NA,1695349664
397,farasan,16.7022,42.1183,30.76,81,39,3.02,SA,1695349665
398,vicencia,-7.6569,-35.3267,21.14,88,32,2.59,BR,1695349665
399,saranac lake,44.3295,-74.1313,8.95,93,0,0.0,US,1695349666
400,tlapa de comonfort,17.55,-98.55,21.37,86,0,1.77,MX,1695349666
401,kerikeri,-35.2268,173.9474,16.59,84,88,4.53,NZ,1695349667
402,sovetskaya gavan',48.9723,140.2878,17.88,46,95,2.15,RU,1695349667
403,afaahiti,-17.75,-149.2833,23.93,80,96,4.01,PF,1695349667
404,camocim,-2.9022,-40.8411,26.0,72,1,7.13,BR,1695349668
405,labrador city,52.9463,-66.9114,0.95,93,0,1.54,CA,1695349668
406,neyriz,29.1988,54.3278,22.12,23,5,1.85,IR,1695349669
407,napier,-39.4833,176.9167,22.38,43,0,4.47,NZ,1695349669
408,queenstown,-31.8976,26.8753,9.75,59,0,0.78,ZA,1695349670
409,alofi,-19.0595,-169.9187,21.94,83,75,6.69,NU,1695349671
410,whakatane,-37.9585,176.9854,18.82,75,82,4.18,NZ,1695349672
411,selkirk,50.1436,-96.8845,14.04,84,100,3.24,CA,1695349672
412,hamilton,39.1834,-84.5333,22.77,72,0,1.54,US,1695348997
413,stephenville,32.2207,-98.2023,30.14,60,0,2.57,US,1695349530
414,kailua-kona,19.6406,-155.9956,28.06,71,75,4.63,US,1695349673
415,al jawf,29.5,38.75,23.66,32,0,2.88,SA,1695349674
416,minas de marcona,-15.2119,-75.1103,13.14,86,35,5.05,PE,1695349674
417,palikir - national government center,6.9248,158.1611,30.47,74,100,6.69,FM,1695349649
418,kenai,60.5544,-151.2583,11.19,70,0,4.12,US,1695349675
419,vila do maio,15.1333,-23.2167,27.44,86,80,3.49,CV,1695349675
420,mejit,10.2753,170.8646,28.57,75,73,4.52,MH,1695349676
421,brezina,33.0989,1.2608,24.19,44,0,2.6,DZ,1695349676
422,chitipa,-9.7024,33.2697,16.7,72,38,2.16,MW,1695349677
423,bairnsdale,-37.8333,147.6167,16.7,46,4,0.89,AU,1695349677
424,vadso,70.0744,29.7487,4.09,81,100,5.66,NO,1695349678
425,guerrero negro,27.9769,-114.0611,20.28,72,7,6.86,MX,1695349678
426,ribeira brava,32.65,-17.0667,23.35,78,20,2.49,PT,1695349107
427,kasba,25.85,87.55,24.24,95,100,6.5,IN,1695349391
428,buenaventura,3.8801,-77.0312,25.64,91,100,0.65,CO,1695349679
429,colotlan,22.1,-103.2667,23.85,33,74,1.12,MX,1695349679
430,ust-tsilma,65.441,52.1498,3.61,95,75,3.91,RU,1695349680
431,tshabong,-26.05,22.45,16.06,14,0,4.52,BW,1695349680
432,usogorsk,63.4106,48.6872,4.02,89,99,1.37,RU,1695349681
433,bridgewater,44.3835,-64.5155,12.82,83,0,2.06,CA,1695349044
434,patti,31.2808,74.8572,27.59,69,0,1.69,IN,1695349681
435,thai binh,20.45,106.3333,30.19,70,28,0.55,VN,1695349682
436,freetown,8.484,-13.2299,25.63,86,100,2.78,SL,1695349682
437,ebon,4.582,168.6964,28.57,76,91,3.9,MH,1695349683
438,manokwari,-0.8667,134.0833,27.99,72,88,1.74,ID,1695349683
439,jwaneng,-24.6004,24.7303,18.68,8,0,4.25,BW,1695349683
440,dongcun,36.7767,121.1597,23.1,54,0,2.48,CN,1695349684
441,beyneu,45.3167,55.2,16.79,49,0,1.97,KZ,1695349684
442,sisimiut,66.9395,-53.6735,1.08,63,0,3.04,GL,1695349685
443,amungan,15.3652,119.9582,29.85,74,88,2.21,PH,1695349685
444,wotje,9.4543,170.2367,29.0,70,45,4.17,MH,1695349685
445,malango,-2.9627,119.9001,26.57,57,52,2.01,ID,1695349686
446,sittwe,20.15,92.9,27.35,85,82,2.97,MM,1695349686
447,namtsy,62.7161,129.6658,3.19,92,100,3.24,RU,1695349687
448,vega de alatorre,20.0333,-96.6333,28.07,79,0,3.13,MX,1695349687
449,darab,28.7519,54.5444,26.37,21,3,1.93,IR,1695349688
450,igunga,-4.2833,33.8833,22.3,53,90,2.26,TZ,1695349688
451,fortaleza,-3.7227,-38.5247,27.34,78,75,7.72,BR,1695349689
452,krasnaya gora,52.9995,31.6023,15.15,55,93,3.93,RU,1695349689
453,crnici,43.1289,17.8667,17.88,94,75,0.51,BA,1695349690
454,lobujya,27.95,86.8167,2.37,94,100,1.04,NP,1695349690
455,popondetta,-8.7537,148.2534,29.16,74,68,1.74,PG,1695349690
456,gao,16.6362,1.637,32.54,33,8,2.61,ML,1695349691
457,tumaco,1.7986,-78.8156,26.13,84,79,2.48,CO,1695349691
458,el sauce,12.8869,-86.539,25.46,76,92,1.82,NI,1695349692
459,phan thiet,10.9333,108.1,29.74,66,68,2.07,VN,1695349642
460,ibi,38.6253,-0.5723,21.07,66,100,3.94,ES,1695349693
461,bagan,54.1001,77.6646,10.87,64,36,4.62,RU,1695349693
462,san pedro pochutla,15.7333,-96.4667,25.57,85,36,1.71,MX,1695349517
463,nizhnedevitsk,51.5419,38.3657,14.02,48,36,2.59,RU,1695349694
464,castel di sangro,41.7737,14.1035,18.79,95,100,3.07,IT,1695349694
465,tchintabaraden,15.8969,5.7985,33.04,23,67,1.83,NE,1695349695
466,camarinas,43.1311,-9.1817,17.18,79,32,6.4,ES,1695349695
467,wanning,18.8003,110.3967,30.37,65,8,1.15,CN,1695349696
468,andrelandia,-21.7397,-44.3092,17.69,57,0,1.35,BR,1695349696
469,belyye berega,53.2085,34.6641,12.12,60,9,2.3,RU,1695349697
470,naze,28.3667,129.4833,28.51,79,64,0.89,JP,1695349697
471,arraial do cabo,-22.9661,-42.0278,21.05,88,0,12.25,BR,1695349697
472,fukuecho,32.6881,128.8419,25.2,83,75,3.09,JP,1695349698
473,sitka,57.0531,-135.33,11.94,94,100,1.54,US,1695349698
474,makokou,0.5738,12.8642,20.89,99,100,1.06,GA,1695349699
475,mbuji-mayi,-6.15,23.6,22.35,75,100,0.86,CD,1695349699
476,sosnovo-ozerskoye,52.5249,111.5418,11.51,52,6,4.66,RU,1695349700
477,severo-yeniseyskiy,60.3725,93.0408,9.34,75,31,6.27,RU,1695349700
478,astrakhan,46.3497,48.0408,10.93,87,0,4.0,RU,1695349701
479,esmeraldas,-19.7625,-44.3139,21.52,55,2,3.21,BR,1695349701
480,greymouth,-42.4667,171.2,12.63,95,100,5.05,NZ,1695349702
481,dunedin,-45.8742,170.5036,6.05,88,100,1.89,NZ,1695349702
482,makueni boma,-1.8041,37.6203,17.88,81,100,2.48,KE,1695349703
483,sinop,41.7711,34.8709,14.9,80,96,2.11,TR,1695349703
484,amurzet,47.6967,131.0981,14.48,43,1,7.69,RU,1695349704
485,xilin hot,43.9667,116.0333,14.89,42,5,2.72,CN,1695349704
486,hilsa,25.3167,85.2833,27.96,92,100,6.06,IN,1695349705
487,rongelap,11.1635,166.8941,28.72,72,100,4.83,MH,1695349705
488,yadrin,55.9405,46.2062,14.82,66,87,1.79,RU,1695349706
489,conde,-7.2597,-34.9075,22.7,94,75,4.63,BR,1695349706
490,saint-francois,46.4154,3.9054,13.69,77,0,2.57,FR,1695349707
491,gisborne,-38.6533,178.0042,19.63,52,1,5.2,NZ,1695349473
492,along,28.1667,94.7667,23.1,100,100,0.34,IN,1695349708
493,inarajan village,13.2736,144.7484,31.08,95,85,3.81,GU,1695349708
494,bethanie,-26.4833,17.15,13.26,33,0,0.47,NA,1695349708
495,viana do castelo,41.6932,-8.8329,15.48,85,52,2.53,PT,1695349709
496,coruripe,-10.1256,-36.1756,23.09,82,7,3.69,BR,1695349709
497,zemio,5.0314,25.1361,20.51,98,100,1.07,CF,1695349710
498,san juan de miraflores,-12.1629,-76.9635,18.43,83,67,3.28,PE,1695349711
499,muisne,0.6,-80.0333,25.36,82,100,2.7,EC,1695349711
500,pitimbu,-7.4706,-34.8086,23.33,82,92,5.27,BR,1695349712
501,malabar,-33.9667,151.25,20.01,60,11,0.45,AU,1695349712
502,cabo san lucas,22.8909,-109.9124,30.9,58,0,5.14,MX,1695349577
503,barcelos,41.5388,-8.6151,16.58,89,57,0.89,PT,1695349713
504,long beach,33.767,-118.1892,21.65,77,0,4.63,US,1695349479
505,cockburn town,21.4612,-71.1419,28.85,76,24,5.35,TC,1695349714
506,dudinka,69.4058,86.1778,8.68,93,100,5.75,RU,1695349715
507,ta`u,-14.2336,-169.5144,26.05,74,33,10.21,AS,1695349715
508,whangarei,-35.7317,174.3239,16.88,90,90,3.88,NZ,1695349537
509,tarawa,1.419,172.984,32.05,66,40,6.17,KI,1695349716
510,folkston,30.8305,-82.0098,25.48,91,17,1.82,US,1695349547
511,charlottetown,46.2352,-63.1267,11.16,93,75,3.6,CA,1695349717
512,norrtalje,59.758,18.705,16.68,92,32,4.15,SE,1695349717
513,salinopolis,-0.6136,-47.3561,26.69,84,4,4.65,BR,1695349718
514,bikin,46.8161,134.26,12.67,70,100,3.24,RU,1695349718
515,ponta delgada,37.7333,-25.6667,19.55,72,20,4.12,PT,1695349718
516,rawlins,41.7911,-107.2387,15.75,30,20,3.09,US,1695349719
517,santyoku,37.4406,129.1708,20.8,62,100,1.43,KR,1695349719
518,thunder bay,48.4001,-89.3168,15.99,94,40,1.54,CA,1695349720
519,bobrovytsya,50.75,31.3833,14.15,50,3,3.94,UA,1695349720
520,zag,46.9441,99.165,8.43,56,100,5.58,MN,1695349721
521,dukhan,25.4297,50.7858,31.14,55,20,6.13,QA,1695349721
522,songea,-10.6833,35.65,15.87,86,22,1.77,TZ,1695349722
523,santo antonio,-6.3106,-35.4789,21.72,88,46,4.13,BR,1695349722
524,new plymouth,-39.0667,174.0833,15.17,83,92,7.48,NZ,1695349706
525,valparaiso,-33.0393,-71.6273,10.8,93,40,2.57,CL,1695349641
526,katsuura,35.1333,140.3,27.38,80,100,6.93,JP,1695349723
527,rechka-vydrino,51.485,104.8461,13.08,70,99,1.73,RU,1695349724
528,hotan,37.0997,79.9269,17.68,41,67,2.23,CN,1695349725
529,shenzhen,22.5455,114.0683,32.7,81,42,0.84,CN,1695349442
530,saint-joseph,-21.3667,55.6167,21.37,80,17,4.44,RE,1695349726
531,qa'en,33.7265,59.1844,9.99,41,0,2.01,IR,1695349726
532,point fortin,10.1833,-61.6833,27.16,82,71,4.79,TT,1695349727
533,fegyvernek,47.2667,20.5333,18.01,87,12,3.95,HU,1695349727
534,waddan,29.1614,16.139,24.26,36,45,3.51,LY,1695349456
535,eraan,9.0629,117.7016,27.66,83,95,0.99,PH,1695349728
536,tortoli,39.9256,9.6572,24.9,41,40,4.63,IT,1695349728
537,bonthe,7.5264,-12.505,24.96,90,97,2.68,SL,1695349729
538,tayshet,55.9342,98.0044,14.06,61,18,1.75,RU,1695349729
539,grand falls-windsor,48.9332,-55.6649,6.39,89,100,0.89,CA,1695349730
540,aljezur,37.3191,-8.8033,16.1,86,81,3.41,PT,1695349730
541,kapuskasing,49.4169,-82.4331,18.05,94,20,1.54,CA,1695349731
542,peterhead,57.5058,-1.7981,9.22,82,100,4.09,GB,1695349731
543,cartagena,10.3997,-75.5144,28.79,89,20,4.12,CO,1695349711
544,yelovo,57.0538,54.9207,12.36,92,66,3.55,RU,1695349733
545,jaguey grande,22.5269,-81.1286,24.43,92,80,1.19,CU,1695349733
546,chilaw,7.5758,79.7953,25.01,80,12,6.5,LK,1695349734
547,gobabis,-22.45,18.9667,18.52,22,22,2.99,NA,1695349734
548,ratzeburg,53.7,10.7667,17.34,84,100,2.06,DE,1695349735
549,sandnessjoen,66.0217,12.6316,10.29,81,100,5.86,NO,1695349735
550,sao paulo de olivenca,-3.3783,-68.8725,25.46,76,59,0.92,BR,1695349736
551,inari,68.906,27.0288,3.11,99,100,4.82,FI,1695349736
552,tinajo,29.0788,-13.7081,21.49,73,0,5.66,ES,1695349736
553,encantado,-29.2361,-51.8697,24.23,92,76,1.29,BR,1695349737
554,beitbridge,-22.2167,30.0,21.75,52,0,3.22,ZW,1695349737
555,flying fish cove,-10.4217,105.6791,26.82,73,75,4.63,CX,1695349738
556,lloydminster,53.2835,-110.0016,14.12,44,20,2.06,CA,1695349738
557,altai,46.3722,96.2583,5.03,93,100,2.56,MN,1695349739
558,summerside,46.3959,-63.7876,11.07,82,99,5.66,CA,1695349739
559,cide,41.8921,33.0044,18.64,71,11,1.76,TR,1695349739
560,birao,10.2849,22.7882,22.22,89,100,1.1,CF,1695349740
561,nieuw amsterdam,5.8833,-55.0833,25.09,90,32,3.44,SR,1695349740
562,languyan,5.2618,120.0807,29.5,69,100,5.87,PH,1695349741
563,kaiapoi,-43.3783,172.6401,11.16,92,75,4.63,NZ,1695349741
564,tionk essil,12.7856,-16.5217,26.03,87,98,2.06,SN,1695349742
565,scarborough,54.2797,-0.4044,10.37,86,70,0.45,GB,1695349057
